{"type": "FeatureCollection", "features": [{"type":"Feature","geometry":{"type":"Point","coordinates":[-3.693833,40.367]},"properties":{"cartodb_id":5,"id":2914,"nombre":"El Bombón Madrid","direccion":"CR N-4     P.K. 6,70 I","descripcion":"Vente esta noche a probar esta deliciosa arepa de pulpo ahumado crocante con la que estamos participando en la 1ra ruta de la arepa Pan en Madrid #LaLatina #rutadelaarepa @elbombonmadrid","long":-3.693833,"lat":40.367}},{"type":"Feature","geometry":{"type":"Point","coordinates":[-3.684583,40.437917]},"properties":{"cartodb_id":6,"id":2916,"nombre":"Restaurante La Candelita","direccion":"CL MARIA DE MOLINA, 21","descripcion":"Te invitamos a probar nuestra arepa de solomillo ibérico a la parrilla adobado con pimienta guayabita, Merkén  y aceite de oliva acompañada de aguacate y pebre chileno. Comparte tu selfie mencionando nuestra cuenta @misscandelita para participar en nuestro sorteo a realizarse el 11 de junio por una bandeja de tequeños.","long":-3.684583,"lat":40.437917}},{"type":"Feature","geometry":{"type":"Point","coordinates":[-3.743028,40.3735]},"properties":{"cartodb_id":7,"id":3065,"nombre":"La Arepera By La Cuchara","direccion":"AVENIDA DE LOS POBLADOS, SN","descripcion":"Ufff una Arepa Domino !! No importa como las conozcas Alubias Negras, Frijoles o Caraotas … están bueniiísimas!! Y el Queso Blanco uff que sabor! No la dejes de disfrutar en @laarepera.es","long":-3.743028,"lat":40.3735}},{"type":"Feature","geometry":{"type":"Point","coordinates":[-3.682194,40.451472]},"properties":{"cartodb_id":1,"id":4695,"nombre":"Arepa Olé","direccion":"CALLE SERRANO, 197","descripcion":"Ven con tus amigos y elige entre nuestras arepas de reina pepeada, catira y queso amarillo. Tómate un selfie comiéndotela y compártelo en instagram o twitter mencionándonos @arepaole. Participas por una cena para 2 personas #rutadelaarepa","long":-3.682194,"lat":40.451472}},{"type":"Feature","geometry":{"type":"Point","coordinates":[-3.709639,40.439]},"properties":{"cartodb_id":2,"id":2909,"nombre":"Grama Bar","direccion":"CALLE CEA BERMUDEZ, 32","descripcion":"Consume por lo menos dos de nuestra arepa especial 'Mi negra' con alguna bebida. Compártela con tres amigos por instagram haciendo mención a nuestra cuenta @gramabar y participaras por un delicioso premio #rutadelaarepa","long":-3.709639,"lat":40.439}},{"type":"Feature","geometry":{"type":"Point","coordinates":[-3.7615,40.401833]},"properties":{"cartodb_id":3,"id":2911,"nombre":"Abrásame Malasaña","direccion":"PASEO EXTREMADURA, 300","descripcion":"En Abrásame estamos muy orgullosos de presentar nuestra arepa 'La Bárbara' ven a probarla y comparte tu selfie con el hashtag #rutadelaarepa y mención a @abrasamemalasana. Participarás por deliciosos premios.","long":-3.7615,"lat":40.401833}},{"type":"Feature","geometry":{"type":"Point","coordinates":[-3.694472,40.3665]},"properties":{"cartodb_id":4,"id":2912,"nombre":"Antojos Araguaney","direccion":"CR N-4     P.K. 6,70 D","descripcion":"En la 1era Ruta de la Arepa en Madrid estarán participando con una Arepa de chistorra. Tómate tu selfie y participa por premios muy sabrosos. No olvides el hastag #rutadelaarepa y mencionarnos @antojosaraguaney","long":-3.694472,"lat":40.3665}}]}